[
  {
    "id": 1,
    "name": "New York",
    "country": "United States",
    "population": 8804190,
    "latitude": 40.7128,
    "longitude": -74.0060
  },
  {
    "id": 2,
    "name": "London",
    "country": "United Kingdom",
    "population": 8982000,
    "latitude": 51.5074,
    "longitude": -0.1278
  },
  {
    "id": 3,
    "name": "Tokyo",
    "country": "Japan",
    "population": 13960000,
    "latitude": 35.6762,
    "longitude": 139.6503
  },
  {
    "id": 4,
    "name": "Paris",
    "country": "France",
    "population": 2161000,
    "latitude": 48.8566,
    "longitude": 2.3522
  },
  {
    "id": 5,
    "name": "Sydney",
    "country": "Australia",
    "population": 5312000,
    "latitude": -33.8688,
    "longitude": 151.2093
  },
  {
    "id": 6,
    "name": "Berlin",
    "country": "Germany",
    "population": 3645000,
    "latitude": 52.5200,
    "longitude": 13.4050
  },
  {
    "id": 7,
    "name": "Cairo",
    "country": "Egypt",
    "population": 9540000,
    "latitude": 30.0444,
    "longitude": 31.2357
  },
  {
    "id": 8,
    "name": "Rio de Janeiro",
    "country": "Brazil",
    "population": 6748000,
    "latitude": -22.9068,
    "longitude": -43.1729
  },
  {
    "id": 9,
    "name": "Singapore",
    "country": "Singapore",
    "population": 5686000,
    "latitude": 1.3521,
    "longitude": 103.8198
  },
  {
    "id": 10,
    "name": "Mumbai",
    "country": "India",
    "population": 20411000,
    "latitude": 19.0760,
    "longitude": 72.8777
  },
  {
    "id": 11,
    "name": "Los Angeles",
    "country": "United States",
    "population": 3898000,
    "latitude": 34.0522,
    "longitude": -118.2437
  },
  {
    "id": 12,
    "name": "Toronto",
    "country": "Canada",
    "population": 2930000,
    "latitude": 43.6532,
    "longitude": -79.3832
  },
  {
    "id": 13,
    "name": "Mexico City",
    "country": "Mexico",
    "population": 9209944,
    "latitude": 19.4326,
    "longitude": -99.1332
  },
  {
    "id": 14,
    "name": "Barcelona",
    "country": "Spain",
    "population": 1620000,
    "latitude": 41.3851,
    "longitude": 2.1734
  },
  {
    "id": 15,
    "name": "Seoul",
    "country": "South Korea",
    "population": 9776000,
    "latitude": 37.5665,
    "longitude": 126.9780
  }
]